{
  "서울특별시 종로구": {
    "sgg_code": "11110",
    "sido_name": "서울특별시",
    "sig_name": "종로구",
    "lat": 37.5949173,
    "lon": 126.9773213
  },
  "서울특별시 중구": {
    "sgg_code": "11140",
    "sido_name": "서울특별시",
    "sig_name": "중구",
    "lat": 37.5601436,
    "lon": 126.9959681
  },
  "서울특별시 용산구": {
    "sgg_code": "11170",
    "sido_name": "서울특별시",
    "sig_name": "용산구",
    "lat": 37.531385,
    "lon": 126.979907
  },
  "서울특별시 성동구": {
    "sgg_code": "11200",
    "sido_name": "서울특별시",
    "sig_name": "성동구",
    "lat": 37.5510297,
    "lon": 127.0410585
  },
  "서울특별시 광진구": {
    "sgg_code": "11215",
    "sido_name": "서울특별시",
    "sig_name": "광진구",
    "lat": 37.5467061,
    "lon": 127.0857435
  },
  "서울특별시 동대문구": {
    "sgg_code": "11230",
    "sido_name": "서울특별시",
    "sig_name": "동대문구",
    "lat": 37.5819565,
    "lon": 127.0548481
  },
  "서울특별시 중랑구": {
    "sgg_code": "11260",
    "sido_name": "서울특별시",
    "sig_name": "중랑구",
    "lat": 37.5978026,
    "lon": 127.0928803
  },
  "서울특별시 성북구": {
    "sgg_code": "11290",
    "sido_name": "서울특별시",
    "sig_name": "성북구",
    "lat": 37.6057019,
    "lon": 127.0175795
  },
  "서울특별시 강북구": {
    "sgg_code": "11305",
    "sido_name": "서울특별시",
    "sig_name": "강북구",
    "lat": 37.6434739,
    "lon": 127.011189
  },
  "서울특별시 도봉구": {
    "sgg_code": "11320",
    "sido_name": "서울특별시",
    "sig_name": "도봉구",
    "lat": 37.6691021,
    "lon": 127.0323688
  },
  "서울특별시 노원구": {
    "sgg_code": "11350",
    "sido_name": "서울특별시",
    "sig_name": "노원구",
    "lat": 37.652511,
    "lon": 127.0750347
  },
  "서울특별시 은평구": {
    "sgg_code": "11380",
    "sido_name": "서울특별시",
    "sig_name": "은평구",
    "lat": 37.6192113,
    "lon": 126.9270229
  },
  "서울특별시 서대문구": {
    "sgg_code": "11410",
    "sido_name": "서울특별시",
    "sig_name": "서대문구",
    "lat": 37.5777853,
    "lon": 126.9390631
  },
  "서울특별시 마포구": {
    "sgg_code": "11440",
    "sido_name": "서울특별시",
    "sig_name": "마포구",
    "lat": 37.5593135,
    "lon": 126.90827
  },
  "서울특별시 양천구": {
    "sgg_code": "11470",
    "sido_name": "서울특별시",
    "sig_name": "양천구",
    "lat": 37.5247894,
    "lon": 126.8554777
  },
  "서울특별시 강서구": {
    "sgg_code": "11500",
    "sido_name": "서울특별시",
    "sig_name": "강서구",
    "lat": 37.5612354,
    "lon": 126.822807
  },
  "서울특별시 구로구": {
    "sgg_code": "11530",
    "sido_name": "서울특별시",
    "sig_name": "구로구",
    "lat": 37.4944054,
    "lon": 126.8563006
  },
  "서울특별시 금천구": {
    "sgg_code": "11545",
    "sido_name": "서울특별시",
    "sig_name": "금천구",
    "lat": 37.4605676,
    "lon": 126.9008202
  },
  "서울특별시 영등포구": {
    "sgg_code": "11560",
    "sido_name": "서울특별시",
    "sig_name": "영등포구",
    "lat": 37.5223083,
    "lon": 126.9101695
  },
  "서울특별시 동작구": {
    "sgg_code": "11590",
    "sido_name": "서울특별시",
    "sig_name": "동작구",
    "lat": 37.4988769,
    "lon": 126.9516415
  },
  "서울특별시 관악구": {
    "sgg_code": "11620",
    "sido_name": "서울특별시",
    "sig_name": "관악구",
    "lat": 37.4673757,
    "lon": 126.9453372
  },
  "서울특별시 서초구": {
    "sgg_code": "11650",
    "sido_name": "서울특별시",
    "sig_name": "서초구",
    "lat": 37.4732955,
    "lon": 127.0312203
  },
  "서울특별시 강남구": {
    "sgg_code": "11680",
    "sido_name": "서울특별시",
    "sig_name": "강남구",
    "lat": 37.4966439,
    "lon": 127.0629852
  },
  "서울특별시 송파구": {
    "sgg_code": "11710",
    "sido_name": "서울특별시",
    "sig_name": "송파구",
    "lat": 37.5056192,
    "lon": 127.115295
  },
  "서울특별시 강동구": {
    "sgg_code": "11740",
    "sido_name": "서울특별시",
    "sig_name": "강동구",
    "lat": 37.5504502,
    "lon": 127.1470118
  },
  "부산광역시 중구": {
    "sgg_code": "26110",
    "sido_name": "부산광역시",
    "sig_name": "중구",
    "lat": 35.1054778,
    "lon": 129.0315402
  },
  "부산광역시 서구": {
    "sgg_code": "26140",
    "sido_name": "부산광역시",
    "sig_name": "서구",
    "lat": 35.1038366,
    "lon": 129.0149537
  },
  "부산광역시 동구": {
    "sgg_code": "26170",
    "sido_name": "부산광역시",
    "sig_name": "동구",
    "lat": 35.1291863,
    "lon": 129.0445856
  },
  "부산광역시 영도구": {
    "sgg_code": "26200",
    "sido_name": "부산광역시",
    "sig_name": "영도구",
    "lat": 35.078688,
    "lon": 129.0648096
  },
  "부산광역시 부산진구": {
    "sgg_code": "26230",
    "sido_name": "부산광역시",
    "sig_name": "부산진구",
    "lat": 35.1652441,
    "lon": 129.0430603
  },
  "부산광역시 동래구": {
    "sgg_code": "26260",
    "sido_name": "부산광역시",
    "sig_name": "동래구",
    "lat": 35.2062124,
    "lon": 129.0792201
  },
  "부산광역시 남구": {
    "sgg_code": "26290",
    "sido_name": "부산광역시",
    "sig_name": "남구",
    "lat": 35.1261368,
    "lon": 129.0940064
  },
  "부산광역시 북구": {
    "sgg_code": "26320",
    "sido_name": "부산광역시",
    "sig_name": "북구",
    "lat": 35.2292296,
    "lon": 129.0234398
  },
  "부산광역시 해운대구": {
    "sgg_code": "26350",
    "sido_name": "부산광역시",
    "sig_name": "해운대구",
    "lat": 35.1938534,
    "lon": 129.1535934
  },
  "부산광역시 사하구": {
    "sgg_code": "26380",
    "sido_name": "부산광역시",
    "sig_name": "사하구",
    "lat": 35.0893484,
    "lon": 128.974349
  },
  "부산광역시 금정구": {
    "sgg_code": "26410",
    "sido_name": "부산광역시",
    "sig_name": "금정구",
    "lat": 35.2588907,
    "lon": 129.0915307
  },
  "부산광역시 강서구": {
    "sgg_code": "26440",
    "sido_name": "부산광역시",
    "sig_name": "강서구",
    "lat": 35.1383479,
    "lon": 128.8924006
  },
  "부산광역시 연제구": {
    "sgg_code": "26470",
    "sido_name": "부산광역시",
    "sig_name": "연제구",
    "lat": 35.182418,
    "lon": 129.0829353
  },
  "부산광역시 수영구": {
    "sgg_code": "26500",
    "sido_name": "부산광역시",
    "sig_name": "수영구",
    "lat": 35.1613315,
    "lon": 129.1111627
  },
  "부산광역시 사상구": {
    "sgg_code": "26530",
    "sido_name": "부산광역시",
    "sig_name": "사상구",
    "lat": 35.1580304,
    "lon": 128.9865922
  },
  "부산광역시 기장군": {
    "sgg_code": "26710",
    "sido_name": "부산광역시",
    "sig_name": "기장군",
    "lat": 35.2980117,
    "lon": 129.200956
  },
  "대구광역시 중구": {
    "sgg_code": "27110",
    "sido_name": "대구광역시",
    "sig_name": "중구",
    "lat": 35.8665353,
    "lon": 128.5936058
  },
  "대구광역시 동구": {
    "sgg_code": "27140",
    "sido_name": "대구광역시",
    "sig_name": "동구",
    "lat": 35.9344263,
    "lon": 128.6856599
  },
  "대구광역시 서구": {
    "sgg_code": "27170",
    "sido_name": "대구광역시",
    "sig_name": "서구",
    "lat": 35.8750017,
    "lon": 128.5496976
  },
  "대구광역시 남구": {
    "sgg_code": "27200",
    "sido_name": "대구광역시",
    "sig_name": "남구",
    "lat": 35.8351772,
    "lon": 128.5853296
  },
  "대구광역시 북구": {
    "sgg_code": "27230",
    "sido_name": "대구광역시",
    "sig_name": "북구",
    "lat": 35.9289224,
    "lon": 128.5772044
  },
  "대구광역시 수성구": {
    "sgg_code": "27260",
    "sido_name": "대구광역시",
    "sig_name": "수성구",
    "lat": 35.8338489,
    "lon": 128.6612744
  },
  "대구광역시 달서구": {
    "sgg_code": "27290",
    "sido_name": "대구광역시",
    "sig_name": "달서구",
    "lat": 35.8274831,
    "lon": 128.5292121
  },
  "대구광역시 달성군": {
    "sgg_code": "27710",
    "sido_name": "대구광역시",
    "sig_name": "달성군",
    "lat": 35.7595731,
    "lon": 128.4982981
  },
  "인천광역시 중구": {
    "sgg_code": "28110",
    "sido_name": "인천광역시",
    "sig_name": "중구",
    "lat": 37.4675339,
    "lon": 126.4805605
  },
  "인천광역시 동구": {
    "sgg_code": "28140",
    "sido_name": "인천광역시",
    "sig_name": "동구",
    "lat": 37.4829866,
    "lon": 126.6397466
  },
  "인천광역시 남구": {
    "sgg_code": "28170",
    "sido_name": "인천광역시",
    "sig_name": "남구",
    "lat": 37.4525958,
    "lon": 126.6646585
  },
  "인천광역시 연수구": {
    "sgg_code": "28185",
    "sido_name": "인천광역시",
    "sig_name": "연수구",
    "lat": 37.398564,
    "lon": 126.6473033
  },
  "인천광역시 남동구": {
    "sgg_code": "28200",
    "sido_name": "인천광역시",
    "sig_name": "남동구",
    "lat": 37.4313489,
    "lon": 126.726461
  },
  "인천광역시 부평구": {
    "sgg_code": "28237",
    "sido_name": "인천광역시",
    "sig_name": "부평구",
    "lat": 37.4966587,
    "lon": 126.7212094
  },
  "인천광역시 계양구": {
    "sgg_code": "28245",
    "sido_name": "인천광역시",
    "sig_name": "계양구",
    "lat": 37.557297,
    "lon": 126.7346999
  },
  "인천광역시 서구": {
    "sgg_code": "28260",
    "sido_name": "인천광역시",
    "sig_name": "서구",
    "lat": 37.5578044,
    "lon": 126.6563778
  },
  "인천광역시 강화군": {
    "sgg_code": "28710",
    "sido_name": "인천광역시",
    "sig_name": "강화군",
    "lat": 37.7124439,
    "lon": 126.4020881
  },
  "인천광역시 옹진군": {
    "sgg_code": "28720",
    "sido_name": "인천광역시",
    "sig_name": "옹진군",
    "lat": 37.5440113,
    "lon": 125.6360222
  },
  "광주광역시 동구": {
    "sgg_code": "29110",
    "sido_name": "광주광역시",
    "sig_name": "동구",
    "lat": 35.1173802,
    "lon": 126.9494643
  },
  "광주광역시 서구": {
    "sgg_code": "29140",
    "sido_name": "광주광역시",
    "sig_name": "서구",
    "lat": 35.1356931,
    "lon": 126.8507191
  },
  "광주광역시 남구": {
    "sgg_code": "29155",
    "sido_name": "광주광역시",
    "sig_name": "남구",
    "lat": 35.0940582,
    "lon": 126.8567181
  },
  "광주광역시 북구": {
    "sgg_code": "29170",
    "sido_name": "광주광역시",
    "sig_name": "북구",
    "lat": 35.1932461,
    "lon": 126.9254865
  },
  "광주광역시 광산구": {
    "sgg_code": "29200",
    "sido_name": "광주광역시",
    "sig_name": "광산구",
    "lat": 35.165035,
    "lon": 126.7528952
  },
  "대전광역시 동구": {
    "sgg_code": "30110",
    "sido_name": "대전광역시",
    "sig_name": "동구",
    "lat": 36.3239202,
    "lon": 127.4750374
  },
  "대전광역시 중구": {
    "sgg_code": "30140",
    "sido_name": "대전광역시",
    "sig_name": "중구",
    "lat": 36.2808602,
    "lon": 127.4110573
  },
  "대전광역시 서구": {
    "sgg_code": "30170",
    "sido_name": "대전광역시",
    "sig_name": "서구",
    "lat": 36.2802396,
    "lon": 127.3451041
  },
  "대전광역시 유성구": {
    "sgg_code": "30200",
    "sido_name": "대전광역시",
    "sig_name": "유성구",
    "lat": 36.3767905,
    "lon": 127.3332564
  },
  "대전광역시 대덕구": {
    "sgg_code": "30230",
    "sido_name": "대전광역시",
    "sig_name": "대덕구",
    "lat": 36.4121787,
    "lon": 127.4401518
  },
  "울산광역시 중구": {
    "sgg_code": "31110",
    "sido_name": "울산광역시",
    "sig_name": "중구",
    "lat": 35.5710493,
    "lon": 129.3082429
  },
  "울산광역시 남구": {
    "sgg_code": "31140",
    "sido_name": "울산광역시",
    "sig_name": "남구",
    "lat": 35.51605,
    "lon": 129.3282023
  },
  "울산광역시 동구": {
    "sgg_code": "31170",
    "sido_name": "울산광역시",
    "sig_name": "동구",
    "lat": 35.5255737,
    "lon": 129.4260655
  },
  "울산광역시 북구": {
    "sgg_code": "31200",
    "sido_name": "울산광역시",
    "sig_name": "북구",
    "lat": 35.6100539,
    "lon": 129.3798105
  },
  "울산광역시 울주군": {
    "sgg_code": "31710",
    "sido_name": "울산광역시",
    "sig_name": "울주군",
    "lat": 35.5466167,
    "lon": 129.1869255
  },
  "세종특별자치시 세종특별자치시": {
    "sgg_code": "36110",
    "sido_name": "세종특별자치시",
    "sig_name": "세종특별자치시",
    "lat": 36.5606577,
    "lon": 127.2587801
  },
  "경기도 수원시 장안구": {
    "sgg_code": "41111",
    "sido_name": "경기도",
    "sig_name": "수원시 장안구",
    "lat": 37.3139657,
    "lon": 127.0034517
  },
  "경기도 수원시 권선구": {
    "sgg_code": "41113",
    "sido_name": "경기도",
    "sig_name": "수원시 권선구",
    "lat": 37.2605302,
    "lon": 126.9797438
  },
  "경기도 수원시 팔달구": {
    "sgg_code": "41115",
    "sido_name": "경기도",
    "sig_name": "수원시 팔달구",
    "lat": 37.2774636,
    "lon": 127.0162387
  },
  "경기도 수원시 영통구": {
    "sgg_code": "41117",
    "sido_name": "경기도",
    "sig_name": "수원시 영통구",
    "lat": 37.2749904,
    "lon": 127.0566989
  },
  "경기도 성남시 수정구": {
    "sgg_code": "41131",
    "sido_name": "경기도",
    "sig_name": "성남시 수정구",
    "lat": 37.4351662,
    "lon": 127.1041452
  },
  "경기도 성남시 중원구": {
    "sgg_code": "41133",
    "sido_name": "경기도",
    "sig_name": "성남시 중원구",
    "lat": 37.4334332,
    "lon": 127.1639099
  },
  "경기도 성남시 분당구": {
    "sgg_code": "41135",
    "sido_name": "경기도",
    "sig_name": "성남시 분당구",
    "lat": 37.3793016,
    "lon": 127.106064
  },
  "경기도 의정부시": {
    "sgg_code": "41150",
    "sido_name": "경기도",
    "sig_name": "의정부시",
    "lat": 37.7361921,
    "lon": 127.0684231
  },
  "경기도 안양시만안구": {
    "sgg_code": "41171",
    "sido_name": "경기도",
    "sig_name": "안양시만안구",
    "lat": 37.4041334,
    "lon": 126.9113856
  },
  "경기도 안양시동안구": {
    "sgg_code": "41173",
    "sido_name": "경기도",
    "sig_name": "안양시동안구",
    "lat": 37.4003918,
    "lon": 126.9555027
  },
  "경기도 부천시": {
    "sgg_code": "41190",
    "sido_name": "경기도",
    "sig_name": "부천시",
    "lat": 37.5042583,
    "lon": 126.7887109
  },
  "경기도 광명시": {
    "sgg_code": "41210",
    "sido_name": "경기도",
    "sig_name": "광명시",
    "lat": 37.4451591,
    "lon": 126.8647013
  },
  "경기도 평택시": {
    "sgg_code": "41220",
    "sido_name": "경기도",
    "sig_name": "평택시",
    "lat": 37.0118307,
    "lon": 126.9877007
  },
  "경기도 동두천시": {
    "sgg_code": "41250",
    "sido_name": "경기도",
    "sig_name": "동두천시",
    "lat": 37.9165376,
    "lon": 127.0779127
  },
  "경기도 안산시상록구": {
    "sgg_code": "41271",
    "sido_name": "경기도",
    "sig_name": "안산시상록구",
    "lat": 37.3160038,
    "lon": 126.870815
  },
  "경기도 안산시단원구": {
    "sgg_code": "41273",
    "sido_name": "경기도",
    "sig_name": "안산시단원구",
    "lat": 37.2819249,
    "lon": 126.6940412
  },
  "경기도 고양시덕양구": {
    "sgg_code": "41281",
    "sido_name": "경기도",
    "sig_name": "고양시덕양구",
    "lat": 37.6558099,
    "lon": 126.8786321
  },
  "경기도 고양시일산동구": {
    "sgg_code": "41285",
    "sido_name": "경기도",
    "sig_name": "고양시일산동구",
    "lat": 37.6798651,
    "lon": 126.7975582
  },
  "경기도 고양시일산서구": {
    "sgg_code": "41287",
    "sido_name": "경기도",
    "sig_name": "고양시일산서구",
    "lat": 37.6802051,
    "lon": 126.7279835
  },
  "경기도 과천시": {
    "sgg_code": "41290",
    "sido_name": "경기도",
    "sig_name": "과천시",
    "lat": 37.4338453,
    "lon": 127.0026795
  },
  "경기도 구리시": {
    "sgg_code": "41310",
    "sido_name": "경기도",
    "sig_name": "구리시",
    "lat": 37.5992215,
    "lon": 127.1312299
  },
  "경기도 남양주시": {
    "sgg_code": "41360",
    "sido_name": "경기도",
    "sig_name": "남양주시",
    "lat": 37.6625298,
    "lon": 127.2436606
  },
  "경기도 오산시": {
    "sgg_code": "41370",
    "sido_name": "경기도",
    "sig_name": "오산시",
    "lat": 37.1632907,
    "lon": 127.0513297
  },
  "경기도 시흥시": {
    "sgg_code": "41390",
    "sido_name": "경기도",
    "sig_name": "시흥시",
    "lat": 37.3893974,
    "lon": 126.7883928
  },
  "경기도 군포시": {
    "sgg_code": "41410",
    "sido_name": "경기도",
    "sig_name": "군포시",
    "lat": 37.3434827,
    "lon": 126.9211347
  },
  "경기도 의왕시": {
    "sgg_code": "41430",
    "sido_name": "경기도",
    "sig_name": "의왕시",
    "lat": 37.3623877,
    "lon": 126.9896255
  },
  "경기도 하남시": {
    "sgg_code": "41450",
    "sido_name": "경기도",
    "sig_name": "하남시",
    "lat": 37.5228142,
    "lon": 127.2059438
  },
  "경기도 용인시처인구": {
    "sgg_code": "41461",
    "sido_name": "경기도",
    "sig_name": "용인시처인구",
    "lat": 37.2033319,
    "lon": 127.2529331
  },
  "경기도 용인시기흥구": {
    "sgg_code": "41463",
    "sido_name": "경기도",
    "sig_name": "용인시기흥구",
    "lat": 37.2674266,
    "lon": 127.1213215
  },
  "경기도 용인시수지구": {
    "sgg_code": "41465",
    "sido_name": "경기도",
    "sig_name": "용인시수지구",
    "lat": 37.3334474,
    "lon": 127.0715511
  },
  "경기도 파주시": {
    "sgg_code": "41480",
    "sido_name": "경기도",
    "sig_name": "파주시",
    "lat": 37.856192,
    "lon": 126.8107502
  },
  "경기도 이천시": {
    "sgg_code": "41500",
    "sido_name": "경기도",
    "sig_name": "이천시",
    "lat": 37.2097759,
    "lon": 127.4810141
  },
  "경기도 안성시": {
    "sgg_code": "41550",
    "sido_name": "경기도",
    "sig_name": "안성시",
    "lat": 37.0350271,
    "lon": 127.3027223
  },
  "경기도 김포시": {
    "sgg_code": "41570",
    "sido_name": "경기도",
    "sig_name": "김포시",
    "lat": 37.6817724,
    "lon": 126.6264306
  },
  "경기도 화성시": {
    "sgg_code": "41590",
    "sido_name": "경기도",
    "sig_name": "화성시",
    "lat": 37.1652366,
    "lon": 126.8748585
  },
  "경기도 광주시": {
    "sgg_code": "41610",
    "sido_name": "경기도",
    "sig_name": "광주시",
    "lat": 37.4030907,
    "lon": 127.301176
  },
  "경기도 양주시": {
    "sgg_code": "41630",
    "sido_name": "경기도",
    "sig_name": "양주시",
    "lat": 37.8086576,
    "lon": 127.0011349
  },
  "경기도 포천시": {
    "sgg_code": "41650",
    "sido_name": "경기도",
    "sig_name": "포천시",
    "lat": 37.969778,
    "lon": 127.2503373
  },
  "경기도 여주시": {
    "sgg_code": "41670",
    "sido_name": "경기도",
    "sig_name": "여주시",
    "lat": 37.3024584,
    "lon": 127.6157373
  },
  "경기도 연천군": {
    "sgg_code": "41800",
    "sido_name": "경기도",
    "sig_name": "연천군",
    "lat": 38.0927299,
    "lon": 127.0244564
  },
  "경기도 가평군": {
    "sgg_code": "41820",
    "sido_name": "경기도",
    "sig_name": "가평군",
    "lat": 37.8184332,
    "lon": 127.4501921
  },
  "경기도 양평군": {
    "sgg_code": "41830",
    "sido_name": "경기도",
    "sig_name": "양평군",
    "lat": 37.5180558,
    "lon": 127.5792645
  },
  "강원도 춘천시": {
    "sgg_code": "42110",
    "sido_name": "강원도",
    "sig_name": "춘천시",
    "lat": 37.8897968,
    "lon": 127.7398684
  },
  "강원도 원주시": {
    "sgg_code": "42130",
    "sido_name": "강원도",
    "sig_name": "원주시",
    "lat": 37.3082229,
    "lon": 127.9295253
  },
  "강원도 강릉시": {
    "sgg_code": "42150",
    "sido_name": "강원도",
    "sig_name": "강릉시",
    "lat": 37.709102,
    "lon": 128.8323789
  },
  "강원도 동해시": {
    "sgg_code": "42170",
    "sido_name": "강원도",
    "sig_name": "동해시",
    "lat": 37.5066814,
    "lon": 129.0555688
  },
  "강원도 태백시": {
    "sgg_code": "42190",
    "sido_name": "강원도",
    "sig_name": "태백시",
    "lat": 37.1723124,
    "lon": 128.9800726
  },
  "강원도 속초시": {
    "sgg_code": "42210",
    "sido_name": "강원도",
    "sig_name": "속초시",
    "lat": 38.1760314,
    "lon": 128.519541
  },
  "강원도 삼척시": {
    "sgg_code": "42230",
    "sido_name": "강원도",
    "sig_name": "삼척시",
    "lat": 37.2774809,
    "lon": 129.12171
  },
  "강원도 홍천군": {
    "sgg_code": "42720",
    "sido_name": "강원도",
    "sig_name": "홍천군",
    "lat": 37.7450491,
    "lon": 128.0742609
  },
  "강원도 횡성군": {
    "sgg_code": "42730",
    "sido_name": "강원도",
    "sig_name": "횡성군",
    "lat": 37.5091421,
    "lon": 128.0770674
  },
  "강원도 영월군": {
    "sgg_code": "42750",
    "sido_name": "강원도",
    "sig_name": "영월군",
    "lat": 37.2041136,
    "lon": 128.500296
  },
  "강원도 평창군": {
    "sgg_code": "42760",
    "sido_name": "강원도",
    "sig_name": "평창군",
    "lat": 37.5568392,
    "lon": 128.48259
  },
  "강원도 정선군": {
    "sgg_code": "42770",
    "sido_name": "강원도",
    "sig_name": "정선군",
    "lat": 37.3786863,
    "lon": 128.7390632
  },
  "강원도 철원군": {
    "sgg_code": "42780",
    "sido_name": "강원도",
    "sig_name": "철원군",
    "lat": 38.2390852,
    "lon": 127.3989244
  },
  "강원도 화천군": {
    "sgg_code": "42790",
    "sido_name": "강원도",
    "sig_name": "화천군",
    "lat": 38.1384263,
    "lon": 127.6851657
  },
  "강원도 양구군": {
    "sgg_code": "42800",
    "sido_name": "강원도",
    "sig_name": "양구군",
    "lat": 38.1756088,
    "lon": 128.0002064
  },
  "강원도 인제군": {
    "sgg_code": "42810",
    "sido_name": "강원도",
    "sig_name": "인제군",
    "lat": 38.0646003,
    "lon": 128.2647272
  },
  "강원도 고성군": {
    "sgg_code": "42820",
    "sido_name": "강원도",
    "sig_name": "고성군",
    "lat": 38.3627536,
    "lon": 128.4111555
  },
  "강원도 양양군": {
    "sgg_code": "42830",
    "sido_name": "강원도",
    "sig_name": "양양군",
    "lat": 38.0044863,
    "lon": 128.5950086
  },
  "충청북도 청주시 상당구": {
    "sgg_code": "43111",
    "sido_name": "충청북도",
    "sig_name": "청주시 상당구",
    "lat": 36.5921124,
    "lon": 127.5848802
  },
  "충청북도 청주시 서원구": {
    "sgg_code": "43112",
    "sido_name": "충청북도",
    "sig_name": "청주시 서원구",
    "lat": 36.547263,
    "lon": 127.4384007
  },
  "충청북도 청주시 흥덕구": {
    "sgg_code": "43113",
    "sido_name": "충청북도",
    "sig_name": "청주시 흥덕구",
    "lat": 36.6469608,
    "lon": 127.3692749
  },
  "충청북도 청주시 청원구": {
    "sgg_code": "43114",
    "sido_name": "충청북도",
    "sig_name": "청주시 청원구",
    "lat": 36.7205789,
    "lon": 127.4913176
  },
  "충청북도 충주시": {
    "sgg_code": "43130",
    "sido_name": "충청북도",
    "sig_name": "충주시",
    "lat": 37.0151969,
    "lon": 127.8956623
  },
  "충청북도 제천시": {
    "sgg_code": "43150",
    "sido_name": "충청북도",
    "sig_name": "제천시",
    "lat": 37.0599118,
    "lon": 128.1409593
  },
  "충청북도 보은군": {
    "sgg_code": "43720",
    "sido_name": "충청북도",
    "sig_name": "보은군",
    "lat": 36.4899496,
    "lon": 127.7293357
  },
  "충청북도 옥천군": {
    "sgg_code": "43730",
    "sido_name": "충청북도",
    "sig_name": "옥천군",
    "lat": 36.3204561,
    "lon": 127.6565589
  },
  "충청북도 영동군": {
    "sgg_code": "43740",
    "sido_name": "충청북도",
    "sig_name": "영동군",
    "lat": 36.159659,
    "lon": 127.8142281
  },
  "충청북도 증평군": {
    "sgg_code": "43745",
    "sido_name": "충청북도",
    "sig_name": "증평군",
    "lat": 36.786473,
    "lon": 127.6046181
  },
  "충청북도 진천군": {
    "sgg_code": "43750",
    "sido_name": "충청북도",
    "sig_name": "진천군",
    "lat": 36.8709995,
    "lon": 127.4404636
  },
  "충청북도 괴산군": {
    "sgg_code": "43760",
    "sido_name": "충청북도",
    "sig_name": "괴산군",
    "lat": 36.769659,
    "lon": 127.8295881
  },
  "충청북도 음성군": {
    "sgg_code": "43770",
    "sido_name": "충청북도",
    "sig_name": "음성군",
    "lat": 36.9762226,
    "lon": 127.6142068
  },
  "충청북도 단양군": {
    "sgg_code": "43800",
    "sido_name": "충청북도",
    "sig_name": "단양군",
    "lat": 36.9944528,
    "lon": 128.3878416
  },
  "충청남도 천안시동남구": {
    "sgg_code": "44131",
    "sido_name": "충청남도",
    "sig_name": "천안시동남구",
    "lat": 36.7641172,
    "lon": 127.2208946
  },
  "충청남도 천안시서북구": {
    "sgg_code": "44133",
    "sido_name": "충청남도",
    "sig_name": "천안시서북구",
    "lat": 36.8927107,
    "lon": 127.1618094
  },
  "충청남도 공주시": {
    "sgg_code": "44150",
    "sido_name": "충청남도",
    "sig_name": "공주시",
    "lat": 36.4798198,
    "lon": 127.0752191
  },
  "충청남도 보령시": {
    "sgg_code": "44180",
    "sido_name": "충청남도",
    "sig_name": "보령시",
    "lat": 36.3402452,
    "lon": 126.594247
  },
  "충청남도 아산시": {
    "sgg_code": "44200",
    "sido_name": "충청남도",
    "sig_name": "아산시",
    "lat": 36.8073163,
    "lon": 126.9800756
  },
  "충청남도 서산시": {
    "sgg_code": "44210",
    "sido_name": "충청남도",
    "sig_name": "서산시",
    "lat": 36.7839935,
    "lon": 126.4636016
  },
  "충청남도 논산시": {
    "sgg_code": "44230",
    "sido_name": "충청남도",
    "sig_name": "논산시",
    "lat": 36.1908869,
    "lon": 127.1577164
  },
  "충청남도 계룡시": {
    "sgg_code": "44250",
    "sido_name": "충청남도",
    "sig_name": "계룡시",
    "lat": 36.2915937,
    "lon": 127.2344266
  },
  "충청남도 당진시": {
    "sgg_code": "44270",
    "sido_name": "충청남도",
    "sig_name": "당진시",
    "lat": 36.9032578,
    "lon": 126.6527445
  },
  "충청남도 금산군": {
    "sgg_code": "44710",
    "sido_name": "충청남도",
    "sig_name": "금산군",
    "lat": 36.1190008,
    "lon": 127.4783119
  },
  "충청남도 부여군": {
    "sgg_code": "44760",
    "sido_name": "충청남도",
    "sig_name": "부여군",
    "lat": 36.2463839,
    "lon": 126.8569676
  },
  "충청남도 서천군": {
    "sgg_code": "44770",
    "sido_name": "충청남도",
    "sig_name": "서천군",
    "lat": 36.1051721,
    "lon": 126.7079805
  },
  "충청남도 청양군": {
    "sgg_code": "44790",
    "sido_name": "충청남도",
    "sig_name": "청양군",
    "lat": 36.430583,
    "lon": 126.8531131
  },
  "충청남도 홍성군": {
    "sgg_code": "44800",
    "sido_name": "충청남도",
    "sig_name": "홍성군",
    "lat": 36.5700943,
    "lon": 126.6258536
  },
  "충청남도 예산군": {
    "sgg_code": "44810",
    "sido_name": "충청남도",
    "sig_name": "예산군",
    "lat": 36.6706287,
    "lon": 126.7843109
  },
  "충청남도 태안군": {
    "sgg_code": "44825",
    "sido_name": "충청남도",
    "sig_name": "태안군",
    "lat": 36.7036613,
    "lon": 126.2809571
  },
  "전라북도 전주시완산구": {
    "sgg_code": "45111",
    "sido_name": "전라북도",
    "sig_name": "전주시완산구",
    "lat": 35.7920943,
    "lon": 127.1195036
  },
  "전라북도 전주시덕진구": {
    "sgg_code": "45113",
    "sido_name": "전라북도",
    "sig_name": "전주시덕진구",
    "lat": 35.8587012,
    "lon": 127.1129157
  },
  "전라북도 군산시": {
    "sgg_code": "45130",
    "sido_name": "전라북도",
    "sig_name": "군산시",
    "lat": 35.9504389,
    "lon": 126.7260152
  },
  "전라북도 익산시": {
    "sgg_code": "45140",
    "sido_name": "전라북도",
    "sig_name": "익산시",
    "lat": 36.0231056,
    "lon": 126.9895102
  },
  "전라북도 정읍시": {
    "sgg_code": "45180",
    "sido_name": "전라북도",
    "sig_name": "정읍시",
    "lat": 35.6026247,
    "lon": 126.9058575
  },
  "전라북도 남원시": {
    "sgg_code": "45190",
    "sido_name": "전라북도",
    "sig_name": "남원시",
    "lat": 35.4225448,
    "lon": 127.4418897
  },
  "전라북도 김제시": {
    "sgg_code": "45210",
    "sido_name": "전라북도",
    "sig_name": "김제시",
    "lat": 35.8067164,
    "lon": 126.8948857
  },
  "전라북도 완주군": {
    "sgg_code": "45710",
    "sido_name": "전라북도",
    "sig_name": "완주군",
    "lat": 35.9186144,
    "lon": 127.2151146
  },
  "전라북도 진안군": {
    "sgg_code": "45720",
    "sido_name": "전라북도",
    "sig_name": "진안군",
    "lat": 35.8288075,
    "lon": 127.4300354
  },
  "전라북도 무주군": {
    "sgg_code": "45730",
    "sido_name": "전라북도",
    "sig_name": "무주군",
    "lat": 35.9393674,
    "lon": 127.7129531
  },
  "전라북도 장수군": {
    "sgg_code": "45740",
    "sido_name": "전라북도",
    "sig_name": "장수군",
    "lat": 35.657461,
    "lon": 127.5442641
  },
  "전라북도 임실군": {
    "sgg_code": "45750",
    "sido_name": "전라북도",
    "sig_name": "임실군",
    "lat": 35.598202,
    "lon": 127.2366472
  },
  "전라북도 순창군": {
    "sgg_code": "45770",
    "sido_name": "전라북도",
    "sig_name": "순창군",
    "lat": 35.4336343,
    "lon": 127.090087
  },
  "전라북도 고창군": {
    "sgg_code": "45790",
    "sido_name": "전라북도",
    "sig_name": "고창군",
    "lat": 35.4481676,
    "lon": 126.6160462
  },
  "전라북도 부안군": {
    "sgg_code": "45800",
    "sido_name": "전라북도",
    "sig_name": "부안군",
    "lat": 35.6779229,
    "lon": 126.6443774
  },
  "전라남도 목포시": {
    "sgg_code": "46110",
    "sido_name": "전라남도",
    "sig_name": "목포시",
    "lat": 34.8037642,
    "lon": 126.3918353
  },
  "전라남도 여수시": {
    "sgg_code": "46130",
    "sido_name": "전라남도",
    "sig_name": "여수시",
    "lat": 34.6961718,
    "lon": 127.6532031
  },
  "전라남도 순천시": {
    "sgg_code": "46150",
    "sido_name": "전라남도",
    "sig_name": "순천시",
    "lat": 34.9947451,
    "lon": 127.3891627
  },
  "전라남도 나주시": {
    "sgg_code": "46170",
    "sido_name": "전라남도",
    "sig_name": "나주시",
    "lat": 34.9885894,
    "lon": 126.7204103
  },
  "전라남도 광양시": {
    "sgg_code": "46230",
    "sido_name": "전라남도",
    "sig_name": "광양시",
    "lat": 35.0219785,
    "lon": 127.6550735
  },
  "전라남도 담양군": {
    "sgg_code": "46710",
    "sido_name": "전라남도",
    "sig_name": "담양군",
    "lat": 35.2914951,
    "lon": 126.9952909
  },
  "전라남도 곡성군": {
    "sgg_code": "46720",
    "sido_name": "전라남도",
    "sig_name": "곡성군",
    "lat": 35.2166136,
    "lon": 127.2635825
  },
  "전라남도 구례군": {
    "sgg_code": "46730",
    "sido_name": "전라남도",
    "sig_name": "구례군",
    "lat": 35.2367662,
    "lon": 127.5031193
  },
  "전라남도 고흥군": {
    "sgg_code": "46770",
    "sido_name": "전라남도",
    "sig_name": "고흥군",
    "lat": 34.598485,
    "lon": 127.3146205
  },
  "전라남도 보성군": {
    "sgg_code": "46780",
    "sido_name": "전라남도",
    "sig_name": "보성군",
    "lat": 34.8143749,
    "lon": 127.1621214
  },
  "전라남도 화순군": {
    "sgg_code": "46790",
    "sido_name": "전라남도",
    "sig_name": "화순군",
    "lat": 35.0081857,
    "lon": 127.0334335
  },
  "전라남도 장흥군": {
    "sgg_code": "46800",
    "sido_name": "전라남도",
    "sig_name": "장흥군",
    "lat": 34.676537,
    "lon": 126.9215323
  },
  "전라남도 강진군": {
    "sgg_code": "46810",
    "sido_name": "전라남도",
    "sig_name": "강진군",
    "lat": 34.620465,
    "lon": 126.7721517
  },
  "전라남도 해남군": {
    "sgg_code": "46820",
    "sido_name": "전라남도",
    "sig_name": "해남군",
    "lat": 34.5458247,
    "lon": 126.5217898
  },
  "전라남도 영암군": {
    "sgg_code": "46830",
    "sido_name": "전라남도",
    "sig_name": "영암군",
    "lat": 34.7995667,
    "lon": 126.6306945
  },
  "전라남도 무안군": {
    "sgg_code": "46840",
    "sido_name": "전라남도",
    "sig_name": "무안군",
    "lat": 34.9532045,
    "lon": 126.4259079
  },
  "전라남도 함평군": {
    "sgg_code": "46860",
    "sido_name": "전라남도",
    "sig_name": "함평군",
    "lat": 35.1126705,
    "lon": 126.5356041
  },
  "전라남도 영광군": {
    "sgg_code": "46870",
    "sido_name": "전라남도",
    "sig_name": "영광군",
    "lat": 35.278486,
    "lon": 126.4531293
  },
  "전라남도 장성군": {
    "sgg_code": "46880",
    "sido_name": "전라남도",
    "sig_name": "장성군",
    "lat": 35.3295644,
    "lon": 126.7684949
  },
  "전라남도 완도군": {
    "sgg_code": "46890",
    "sido_name": "전라남도",
    "sig_name": "완도군",
    "lat": 34.2955793,
    "lon": 126.7768069
  },
  "전라남도 진도군": {
    "sgg_code": "46900",
    "sido_name": "전라남도",
    "sig_name": "진도군",
    "lat": 34.4393964,
    "lon": 126.2150578
  },
  "전라남도 신안군": {
    "sgg_code": "46910",
    "sido_name": "전라남도",
    "sig_name": "신안군",
    "lat": 34.8124065,
    "lon": 126.048907
  },
  "경상북도 포항시 남구": {
    "sgg_code": "47111",
    "sido_name": "경상북도",
    "sig_name": "포항시 남구",
    "lat": 35.9581353,
    "lon": 129.4376545
  },
  "경상북도 포항시 북구": {
    "sgg_code": "47113",
    "sido_name": "경상북도",
    "sig_name": "포항시 북구",
    "lat": 36.1650733,
    "lon": 129.234009
  },
  "경상북도 경주시": {
    "sgg_code": "47130",
    "sido_name": "경상북도",
    "sig_name": "경주시",
    "lat": 35.8266428,
    "lon": 129.2359296
  },
  "경상북도 김천시": {
    "sgg_code": "47150",
    "sido_name": "경상북도",
    "sig_name": "김천시",
    "lat": 36.0604239,
    "lon": 128.0777075
  },
  "경상북도 안동시": {
    "sgg_code": "47170",
    "sido_name": "경상북도",
    "sig_name": "안동시",
    "lat": 36.5802422,
    "lon": 128.7800427
  },
  "경상북도 구미시": {
    "sgg_code": "47190",
    "sido_name": "경상북도",
    "sig_name": "구미시",
    "lat": 36.2073096,
    "lon": 128.3555555
  },
  "경상북도 영주시": {
    "sgg_code": "47210",
    "sido_name": "경상북도",
    "sig_name": "영주시",
    "lat": 36.8704754,
    "lon": 128.5976826
  },
  "경상북도 영천시": {
    "sgg_code": "47230",
    "sido_name": "경상북도",
    "sig_name": "영천시",
    "lat": 36.0157784,
    "lon": 128.942624
  },
  "경상북도 상주시": {
    "sgg_code": "47250",
    "sido_name": "경상북도",
    "sig_name": "상주시",
    "lat": 36.4295023,
    "lon": 128.067007
  },
  "경상북도 문경시": {
    "sgg_code": "47280",
    "sido_name": "경상북도",
    "sig_name": "문경시",
    "lat": 36.6907915,
    "lon": 128.1486082
  },
  "경상북도 경산시": {
    "sgg_code": "47290",
    "sido_name": "경상북도",
    "sig_name": "경산시",
    "lat": 35.8340601,
    "lon": 128.8090552
  },
  "경상북도 군위군": {
    "sgg_code": "47720",
    "sido_name": "경상북도",
    "sig_name": "군위군",
    "lat": 36.1701121,
    "lon": 128.6482246
  },
  "경상북도 의성군": {
    "sgg_code": "47730",
    "sido_name": "경상북도",
    "sig_name": "의성군",
    "lat": 36.3620445,
    "lon": 128.6150673
  },
  "경상북도 청송군": {
    "sgg_code": "47750",
    "sido_name": "경상북도",
    "sig_name": "청송군",
    "lat": 36.3569764,
    "lon": 129.0573852
  },
  "경상북도 영양군": {
    "sgg_code": "47760",
    "sido_name": "경상북도",
    "sig_name": "영양군",
    "lat": 36.6963888,
    "lon": 129.1450305
  },
  "경상북도 영덕군": {
    "sgg_code": "47770",
    "sido_name": "경상북도",
    "sig_name": "영덕군",
    "lat": 36.4823877,
    "lon": 129.3173762
  },
  "경상북도 청도군": {
    "sgg_code": "47820",
    "sido_name": "경상북도",
    "sig_name": "청도군",
    "lat": 35.6729748,
    "lon": 128.786527
  },
  "경상북도 고령군": {
    "sgg_code": "47830",
    "sido_name": "경상북도",
    "sig_name": "고령군",
    "lat": 35.7371971,
    "lon": 128.3067337
  },
  "경상북도 성주군": {
    "sgg_code": "47840",
    "sido_name": "경상북도",
    "sig_name": "성주군",
    "lat": 35.9072234,
    "lon": 128.2333931
  },
  "경상북도 칠곡군": {
    "sgg_code": "47850",
    "sido_name": "경상북도",
    "sig_name": "칠곡군",
    "lat": 36.0155113,
    "lon": 128.4625838
  },
  "경상북도 예천군": {
    "sgg_code": "47900",
    "sido_name": "경상북도",
    "sig_name": "예천군",
    "lat": 36.6538453,
    "lon": 128.422384
  },
  "경상북도 봉화군": {
    "sgg_code": "47920",
    "sido_name": "경상북도",
    "sig_name": "봉화군",
    "lat": 36.9341402,
    "lon": 128.9129004
  },
  "경상북도 울진군": {
    "sgg_code": "47930",
    "sido_name": "경상북도",
    "sig_name": "울진군",
    "lat": 36.9039131,
    "lon": 129.3123186
  },
  "경상북도 울릉군": {
    "sgg_code": "47940",
    "sido_name": "경상북도",
    "sig_name": "울릉군",
    "lat": 37.5019419,
    "lon": 130.864243
  },
  "경상남도 창원시 의창구": {
    "sgg_code": "48121",
    "sido_name": "경상남도",
    "sig_name": "창원시 의창구",
    "lat": 35.308949,
    "lon": 128.6495884
  },
  "경상남도 창원시 성산구": {
    "sgg_code": "48123",
    "sido_name": "경상남도",
    "sig_name": "창원시 성산구",
    "lat": 35.1961857,
    "lon": 128.6721044
  },
  "경상남도 창원시 마산합포구": {
    "sgg_code": "48125",
    "sido_name": "경상남도",
    "sig_name": "창원시 마산합포구",
    "lat": 35.1354581,
    "lon": 128.4852558
  },
  "경상남도 창원시 마산회원구": {
    "sgg_code": "48127",
    "sido_name": "경상남도",
    "sig_name": "창원시 마산회원구",
    "lat": 35.2322266,
    "lon": 128.5364332
  },
  "경상남도 창원시 진해구": {
    "sgg_code": "48129",
    "sido_name": "경상남도",
    "sig_name": "창원시 진해구",
    "lat": 35.1299495,
    "lon": 128.7363008
  },
  "경상남도 진주시": {
    "sgg_code": "48170",
    "sido_name": "경상남도",
    "sig_name": "진주시",
    "lat": 35.2051576,
    "lon": 128.1298011
  },
  "경상남도 통영시": {
    "sgg_code": "48220",
    "sido_name": "경상남도",
    "sig_name": "통영시",
    "lat": 34.8293284,
    "lon": 128.3740775
  },
  "경상남도 사천시": {
    "sgg_code": "48240",
    "sido_name": "경상남도",
    "sig_name": "사천시",
    "lat": 35.0497034,
    "lon": 128.0376963
  },
  "경상남도 김해시": {
    "sgg_code": "48250",
    "sido_name": "경상남도",
    "sig_name": "김해시",
    "lat": 35.2721564,
    "lon": 128.8452158
  },
  "경상남도 밀양시": {
    "sgg_code": "48270",
    "sido_name": "경상남도",
    "sig_name": "밀양시",
    "lat": 35.4984997,
    "lon": 128.7896015
  },
  "경상남도 거제시": {
    "sgg_code": "48310",
    "sido_name": "경상남도",
    "sig_name": "거제시",
    "lat": 34.8704352,
    "lon": 128.6231395
  },
  "경상남도 양산시": {
    "sgg_code": "48330",
    "sido_name": "경상남도",
    "sig_name": "양산시",
    "lat": 35.4018882,
    "lon": 129.0410414
  },
  "경상남도 의령군": {
    "sgg_code": "48720",
    "sido_name": "경상남도",
    "sig_name": "의령군",
    "lat": 35.392431,
    "lon": 128.2770578
  },
  "경상남도 함안군": {
    "sgg_code": "48730",
    "sido_name": "경상남도",
    "sig_name": "함안군",
    "lat": 35.2910028,
    "lon": 128.4308769
  },
  "경상남도 창녕군": {
    "sgg_code": "48740",
    "sido_name": "경상남도",
    "sig_name": "창녕군",
    "lat": 35.5082277,
    "lon": 128.4930519
  },
  "경상남도 고성군": {
    "sgg_code": "48820",
    "sido_name": "경상남도",
    "sig_name": "고성군",
    "lat": 35.0163045,
    "lon": 128.2906632
  },
  "경상남도 남해군": {
    "sgg_code": "48840",
    "sido_name": "경상남도",
    "sig_name": "남해군",
    "lat": 34.818291,
    "lon": 127.9411405
  },
  "경상남도 하동군": {
    "sgg_code": "48850",
    "sido_name": "경상남도",
    "sig_name": "하동군",
    "lat": 35.1383046,
    "lon": 127.779049
  },
  "경상남도 산청군": {
    "sgg_code": "48860",
    "sido_name": "경상남도",
    "sig_name": "산청군",
    "lat": 35.3685974,
    "lon": 127.8843379
  },
  "경상남도 함양군": {
    "sgg_code": "48870",
    "sido_name": "경상남도",
    "sig_name": "함양군",
    "lat": 35.5516017,
    "lon": 127.7220411
  },
  "경상남도 거창군": {
    "sgg_code": "48880",
    "sido_name": "경상남도",
    "sig_name": "거창군",
    "lat": 35.7325522,
    "lon": 127.9041696
  },
  "경상남도 합천군": {
    "sgg_code": "48890",
    "sido_name": "경상남도",
    "sig_name": "합천군",
    "lat": 35.5765775,
    "lon": 128.1415437
  },
  "제주특별자치도 제주시": {
    "sgg_code": "50110",
    "sido_name": "제주특별자치도",
    "sig_name": "제주시",
    "lat": 33.4422019,
    "lon": 126.5292476
  },
  "제주특별자치도 서귀포시": {
    "sgg_code": "50130",
    "sido_name": "제주특별자치도",
    "sig_name": "서귀포시",
    "lat": 33.3250403,
    "lon": 126.5810857
  }
}